{"type": "FeatureCollection", "features": [{"type": "Feature", "geometry": {"type": "Point", "coordinates": [-66.379, 16.762]}, "properties": {"name": "Am\u00e9riques", "imports": 31740648.0, "exports": 14542393.0}}, {"type": "Feature", "geometry": {"type": "Point", "coordinates": [-98.569, 37.545]}, "properties": {"name": "\u00c9tats-Unis d'Am\u00e9rique", "imports": 958093.7048460001, "exports": 239788.98914249995}}, {"type": "Feature", "geometry": {"type": "Point", "coordinates": [-1.835, 52.829]}, "properties": {"name": "Angleterre", "imports": 1046333.0, "exports": 1140719.80401517}}, {"type": "Feature", "geometry": {"type": "Point", "coordinates": [4.9878, 52.2984]}, "properties": {"name": "Hollande", "imports": 2046345.67102488, "exports": 895695.7541407199}}, {"type": "Feature", "geometry": {"type": "Point", "coordinates": [18.479, 56.475]}, "properties": {"name": "Nord", "imports": 3283456.5936220004, "exports": 1178146.32251836}}, {"type": "Feature", "geometry": {"type": "Point", "coordinates": [-8.102, 38.139]}, "properties": {"name": "Portugal", "imports": 304088.001869, "exports": null}}, {"type": "Feature", "geometry": {"type": "Point", "coordinates": [4.2764, 50.8242]}, "properties": {"name": "Flandre et autres \u00e9tats de l'Empereur", "imports": 823740.383224, "exports": 282884.47705189005}}, {"type": "Feature", "geometry": {"type": "Point", "coordinates": [76.64, -7.8]}, "properties": {"name": "Asie", "imports": null, "exports": 1660684.0}}, {"type": "Feature", "geometry": {"type": "Point", "coordinates": [10.4478, 51.1638]}, "properties": {"name": "Allemagne", "imports": null, "exports": 2052.0}}, {"type": "Feature", "geometry": {"type": "Point", "coordinates": [-5.867, 40.33]}, "properties": {"name": "Espagne", "imports": 8840868.18039737, "exports": 9863096.925390964}}, {"type": "Feature", "geometry": {"type": "Point", "coordinates": [13.337, 41.87]}, "properties": {"name": "Italie", "imports": 43052914.571335405, "exports": 13691097.147279572}}, {"type": "Feature", "geometry": {"type": "Point", "coordinates": [-0.483, 46.725]}, "properties": {"name": "France", "imports": 32135889.123546023, "exports": 36427133.12979482}}, {"type": "Feature", "geometry": {"type": "Point", "coordinates": [5.427, 40.271]}, "properties": {"name": "Monde", "imports": null, "exports": 24912626.0}}, {"type": "Feature", "geometry": {"type": "Point", "coordinates": [28.597, 35.147]}, "properties": {"name": "Levant et Barbarie", "imports": 39436933.45469722, "exports": 13304798.760940531}}, {"type": "Feature", "geometry": {"type": "Point", "coordinates": [-15.414, 13.454]}, "properties": {"name": "Afrique", "imports": 10756.0, "exports": 408552.0}}]}